[
  {
    "id": 8396,
    "created_at": "2023-05-02T19:38:49.000000Z",
    "updated_at": "2023-05-02T19:38:49.000000Z",
    "name": "Asinan",
    "code": "0331400001",
    "status": "3485",
    "region_id": 3,
    "province_id": 15,
    "city_municipality_id": 333,
    "gps": {
      "latitude": 14.827951,
      "longitude": 120.283055
    }
  },
  {
    "id": 8397,
    "created_at": "2023-05-02T19:38:49.000000Z",
    "updated_at": "2023-05-02T19:38:49.000000Z",
    "name": "Banicain",
    "code": "0331400002",
    "status": "7563",
    "region_id": 3,
    "province_id": 15,
    "city_municipality_id": 333,
    "gps": {
      "latitude": 14.828177,
      "longitude": 120.276888
    }
  },
  {
    "id": 8398,
    "created_at": "2023-05-02T19:38:49.000000Z",
    "updated_at": "2023-05-02T19:38:49.000000Z",
    "name": "Barretto",
    "code": "0331400003",
    "status": "21794",
    "region_id": 3,
    "province_id": 15,
    "city_municipality_id": 333,
    "gps": {
      "latitude": 14.85121,
      "longitude": 120.262568
    }
  },
  {
    "id": 8399,
    "created_at": "2023-05-02T19:38:49.000000Z",
    "updated_at": "2023-05-02T19:38:49.000000Z",
    "name": "East Bajac-bajac",
    "code": "0331400005",
    "status": "19387",
    "region_id": 3,
    "province_id": 15,
    "city_municipality_id": 333,
    "gps": {
      "latitude": 14.837585,
      "longitude": 120.287453
    }
  },
  {
    "id": 8400,
    "created_at": "2023-05-02T19:38:49.000000Z",
    "updated_at": "2023-05-02T19:38:49.000000Z",
    "name": "East Tapinac",
    "code": "0331400006",
    "status": "9952",
    "region_id": 3,
    "province_id": 15,
    "city_municipality_id": 333,
    "gps": {
      "latitude": 14.832758,
      "longitude": 120.284628
    }
  },
  {
    "id": 8401,
    "created_at": "2023-05-02T19:38:49.000000Z",
    "updated_at": "2023-05-02T19:38:49.000000Z",
    "name": "Gordon Heights",
    "code": "0331400008",
    "status": "30729",
    "region_id": 3,
    "province_id": 15,
    "city_municipality_id": 333,
    "gps": {
      "latitude": 14.860508,
      "longitude": 120.292267
    }
  },
  {
    "id": 8402,
    "created_at": "2023-05-02T19:38:49.000000Z",
    "updated_at": "2023-05-02T19:38:49.000000Z",
    "name": "Kalaklan",
    "code": "0331400011",
    "status": "14703",
    "region_id": 3,
    "province_id": 15,
    "city_municipality_id": 333,
    "gps": {
      "latitude": 14.834312,
      "longitude": 120.272855
    }
  },
  {
    "id": 8403,
    "created_at": "2023-05-02T19:38:49.000000Z",
    "updated_at": "2023-05-02T19:38:49.000000Z",
    "name": "New Kalalake",
    "code": "0331400012",
    "status": "10296",
    "region_id": 3,
    "province_id": 15,
    "city_municipality_id": 333,
    "gps": {
      "latitude": 14.832192,
      "longitude": 120.28872
    }
  },
  {
    "id": 8404,
    "created_at": "2023-05-02T19:38:49.000000Z",
    "updated_at": "2023-05-02T19:38:49.000000Z",
    "name": "Mabayuan",
    "code": "0331400013",
    "status": "12436",
    "region_id": 3,
    "province_id": 15,
    "city_municipality_id": 333,
    "gps": {
      "latitude": 14.847054,
      "longitude": 120.285149
    }
  },
  {
    "id": 8405,
    "created_at": "2023-05-02T19:38:49.000000Z",
    "updated_at": "2023-05-02T19:38:49.000000Z",
    "name": "New Cabalan",
    "code": "0331400014",
    "status": "33349",
    "region_id": 3,
    "province_id": 15,
    "city_municipality_id": 333,
    "gps": {
      "latitude": 14.849585,
      "longitude": 120.324037
    }
  },
  {
    "id": 8406,
    "created_at": "2023-05-02T19:38:49.000000Z",
    "updated_at": "2023-05-02T19:38:49.000000Z",
    "name": "New Ilalim",
    "code": "0331400015",
    "status": "1561",
    "region_id": 3,
    "province_id": 15,
    "city_municipality_id": 333,
    "gps": {
      "latitude": 14.834373,
      "longitude": 120.279002
    }
  },
  {
    "id": 8407,
    "created_at": "2023-05-02T19:38:49.000000Z",
    "updated_at": "2023-05-02T19:38:49.000000Z",
    "name": "New Kababae",
    "code": "0331400016",
    "status": "2422",
    "region_id": 3,
    "province_id": 15,
    "city_municipality_id": 333,
    "gps": {
      "latitude": 14.832097,
      "longitude": 120.276901
    }
  },
  {
    "id": 8408,
    "created_at": "2023-05-02T19:38:49.000000Z",
    "updated_at": "2023-05-02T19:38:49.000000Z",
    "name": "Pag-asa",
    "code": "0331400017",
    "status": "6593",
    "region_id": 3,
    "province_id": 15,
    "city_municipality_id": 333,
    "gps": {
      "latitude": 14.82805,
      "longitude": 120.287224
    }
  },
  {
    "id": 8409,
    "created_at": "2023-05-02T19:38:49.000000Z",
    "updated_at": "2023-05-02T19:38:49.000000Z",
    "name": "Santa Rita",
    "code": "0331400018",
    "status": "47034",
    "region_id": 3,
    "province_id": 15,
    "city_municipality_id": 333,
    "gps": {
      "latitude": 14.848914,
      "longitude": 120.291118
    }
  },
  {
    "id": 8410,
    "created_at": "2023-05-02T19:38:49.000000Z",
    "updated_at": "2023-05-02T19:38:49.000000Z",
    "name": "West Bajac-bajac",
    "code": "0331400019",
    "status": "8433",
    "region_id": 3,
    "province_id": 15,
    "city_municipality_id": 333,
    "gps": {
      "latitude": 14.842436,
      "longitude": 120.285447
    }
  },
  {
    "id": 8411,
    "created_at": "2023-05-02T19:38:49.000000Z",
    "updated_at": "2023-05-02T19:38:49.000000Z",
    "name": "West Tapinac",
    "code": "0331400020",
    "status": "7179",
    "region_id": 3,
    "province_id": 15,
    "city_municipality_id": 333,
    "gps": {
      "latitude": 14.831307,
      "longitude": 120.279876
    }
  },
  {
    "id": 8412,
    "created_at": "2023-05-02T19:38:49.000000Z",
    "updated_at": "2023-05-02T19:38:49.000000Z",
    "name": "Old Cabalan",
    "code": "0331400021",
    "status": "23401",
    "region_id": 3,
    "province_id": 15,
    "city_municipality_id": 333,
    "gps": {
      "latitude": 14.848541,
      "longitude": 120.315088
    }
  }
]
